[{"pk": 1, "model": "places.type", "fields": {"codename": "STADIUM", "name": "Stadion", "description": ""}}, {"pk": 1, "model": "places.place", "fields": {"city": "Limanowa", "description": "", "title": "Limanovia Limanowa", "country": "Polska", "longitude": "20.420615", "street": "J\u00f3zefa Marka 4", "latitude": "49.70586", "type": 1}}, {"pk": 2, "model": "places.place", "fields": {"city": "", "description": "", "title": "KS Tymbark", "country": "Polska", "longitude": "20.317569", "street": "Tymbark 249", "latitude": "49.738182", "type": 1}}, {"pk": 3, "model": "places.place", "fields": {"city": "S\u0142opnice", "description": "", "title": "S\u0142opnice", "country": "Polska", "longitude": "20.34524", "street": "", "latitude": "49.687844", "type": 1}}, {"pk": 4, "model": "places.place", "fields": {"city": "Limanowa", "description": "", "title": "Lks \"P\u0142omie\u0144\" Limanowa", "country": "Polska", "longitude": "20.3911768", "street": "Szkolna 4", "latitude": "49.7397381", "type": 1}}, {"pk": 5, "model": "places.place", "fields": {"city": "Kasina Wielka", "description": "", "title": "\u015anie\u017cnica Kasina Wielka", "country": "Polska", "longitude": "20.1353402", "street": "", "latitude": "49.7287057", "type": 1}}, {"pk": 6, "model": "places.place", "fields": {"city": "Laskowa", "description": "", "title": "Laskovia Laskowa", "country": "Polska", "longitude": "20.4503151", "street": "", "latitude": "49.7613385", "type": 1}}, {"pk": 7, "model": "places.place", "fields": {"city": "\u0141ukowica", "description": "", "title": "\u0141ukowica", "country": "Polska", "longitude": "20.4829087", "street": "", "latitude": "49.6108537", "type": 1}}]